{
  "_meta": {
    "actualizado": "2026-05-26T09:00:00-06:00",
    "fuentes": ["Inmuebles24", "MercadoLibre", "propiedades.com", "Lamudi"],
    "zona": "Fraccionamiento Terralta, San Pedro Tlaquepaque",
    "total": 36,
    "scraper_version": "1.0"
  },
  "propiedades": [
    { "id": 1, "modalidad": "Venta", "tipoProp": "Casa", "titulo": "Casa en Tierra de Esperanza", "calle": "Tierra De Esperanza, Terralta", "precio": 2980000, "m2c": 96, "rec": 3, "ban": 3, "estac": 2, "extras": "Jardín · Condominio cerrado · 15 años antigüedad", "remate": false, "lat": 20.6076, "lng": -103.3604, "fuente": "MercadoLibre", "url": "https://casa.mercadolibre.com.mx/MLM-2899509175", "img": null },
    { "id": 2, "modalidad": "Venta", "tipoProp": "Casa", "titulo": "Casa Remate — Tierra de Unicornios 188", "calle": "Tierra de Unicornios #188, Terralta", "precio": 998000, "m2c": 86, "rec": 3, "ban": 2, "estac": null, "extras": "Remate bancario · Solo contado · Sin poder visitar", "remate": true, "lat": 20.6083, "lng": -103.3568, "fuente": "propiedades.com", "url": null, "img": null },
    { "id": 3, "modalidad": "Venta", "tipoProp": "Casa", "titulo": "Casa Remate — Tierra de Unicornios", "calle": "Tierra de Unicornios, Terralta", "precio": 530000, "m2c": 110, "rec": 3, "ban": 2, "estac": null, "extras": "Remate bancario · Entrega 6-14 meses · Solo contado", "remate": true, "lat": 20.6084, "lng": -103.3570, "fuente": "propiedades.com", "url": null, "img": null },
    { "id": 4, "modalidad": "Venta", "tipoProp": "Casa", "titulo": "Casa en Tierra Contenta 170", "calle": "Tierra Contenta #170, Terralta", "precio": 747000, "m2c": 94, "rec": 3, "ban": 2, "estac": null, "extras": "En fraccionamiento privado", "remate": false, "lat": 20.6106, "lng": -103.3576, "fuente": "MercadoLibre", "img": null },
    { "id": 5, "modalidad": "Venta", "tipoProp": "Casa", "titulo": "Casa en Tierra de Danza 168", "calle": "Tierra De Danza #168, Terralta", "precio": 706000, "m2c": 80, "rec": 3, "ban": 1, "estac": null, "extras": "Dentro de fracc. cerrado", "remate": false, "lat": 20.6110, "lng": -103.3575, "fuente": "MercadoLibre", "img": null },
    { "id": 6, "modalidad": "Venta", "tipoProp": "Casa", "titulo": "Casa en Tierra de Danza", "calle": "Tierra De Danza, Terralta", "precio": 755960, "m2c": 102, "rec": 3, "ban": 2, "estac": null, "extras": "Fracc. privado · Vigilancia", "remate": false, "lat": 20.6111, "lng": -103.3574, "fuente": "MercadoLibre", "img": null },
    { "id": 7, "modalidad": "Venta", "tipoProp": "Casa", "titulo": "Casa en Tierra de Danza 1-300", "calle": "Tierra De Danza 1-300, Terralta", "precio": 706000, "m2c": 86, "rec": 2, "ban": 1, "estac": null, "extras": "Fracc. privado", "remate": false, "lat": 20.6109, "lng": -103.3576, "fuente": "MercadoLibre", "img": null },
    { "id": 8, "modalidad": "Venta", "tipoProp": "Casa", "titulo": "Casa Remate — Tierra Hermosa", "calle": "Tierra Hermosa, Terralta", "precio": 720000, "m2c": 145, "rec": 3, "ban": 2, "estac": 2, "extras": "Remate bancario · Cuarto servicio · 2 estac.", "remate": true, "lat": 20.6103, "lng": -103.3579, "fuente": "Lamudi", "img": null },
    { "id": 9, "modalidad": "Venta", "tipoProp": "Casa", "titulo": "Casa Remate — Terra Contenta", "calle": "Terra Contenta, Terralta", "precio": 871000, "m2c": 145, "rec": 3, "ban": 2, "estac": null, "extras": "Remate bancario · Entrega estimada 6-14 meses", "remate": true, "lat": 20.6107, "lng": -103.3577, "fuente": "Lamudi", "img": null },
    { "id": 10, "modalidad": "Venta", "tipoProp": "Casa", "titulo": "Casa en Terralta", "calle": "Terralta, Tlaquepaque", "precio": 672000, "m2c": 60, "rec": 2, "ban": 1, "estac": null, "extras": "Fracc. cerrado", "remate": false, "lat": 20.6095, "lng": -103.3585, "fuente": "MercadoLibre", "img": null },
    { "id": 11, "modalidad": "Renta", "tipoProp": "Casa", "titulo": "Casa en Renta — Tierra Tranquila", "calle": "Tierra Tranquila 289, Terralta", "precio": 11500, "m2c": 83, "rec": 3, "ban": 2, "estac": 2, "extras": "Fracc. cerrado · 2 estacionamientos", "remate": false, "lat": 20.6097, "lng": -103.3590, "fuente": "Inmuebles24", "img": "https://img10.naventcdn.com/avisos/18/01/49/76/62/95/720x532/1604329606.jpg" },
    { "id": 12, "modalidad": "Renta", "tipoProp": "Casa", "titulo": "Casa en Renta — Fracc. AltoSur", "calle": "Fracc. AltoSur, San Pedro Tlaquepaque", "precio": 13000, "m2c": 105, "rec": 2, "ban": 3, "estac": 1, "extras": "Condominio cerrado · Vigilancia", "remate": false, "lat": 20.6145, "lng": -103.3624, "fuente": "Pincali", "img": null },
    { "id": 13, "modalidad": "Renta", "tipoProp": "Casa", "titulo": "Casa en Renta — Condominio AltoSur", "calle": "Fracc. AltoSur, San Pedro Tlaquepaque", "precio": 11200, "m2c": 71, "rec": 2, "ban": 2, "estac": 1, "extras": "Condominio cerrado · 1 estacionamiento", "remate": false, "lat": 20.6144, "lng": -103.3622, "fuente": "Pincali", "img": null },
    { "id": 14, "modalidad": "Venta", "tipoProp": "Depto", "titulo": "Depto en Venta — Tierra Encantada 209", "calle": "Av. Tierra Encantada 209, Terralta", "precio": 1986000, "m2c": 70, "rec": 3, "ban": 2, "estac": 2, "extras": "Nuevo · Entrega inmediata · 2 estac.", "remate": false, "lat": 20.6103, "lng": -103.3610, "fuente": "Inmuebles24", "img": "https://img10.naventcdn.com/avisos/18/01/49/33/48/97/720x532/1595330277.jpg" },
    { "id": 15, "modalidad": "Venta", "tipoProp": "Depto", "titulo": "Depto en Venta — Las Nubes Residencial", "calle": "Las Nubes Residencial, Terralta", "precio": 1960455, "m2c": 60, "rec": 2, "ban": 2, "estac": 1, "extras": "Nuevo · Desarrollo vertical · 1 estac.", "remate": false, "lat": 20.6102, "lng": -103.3609, "fuente": "Inmuebles24", "img": "https://img10.naventcdn.com/avisos/18/01/47/73/28/96/720x532/1563052455.jpg" },
    { "id": 16, "modalidad": "Venta", "tipoProp": "Depto", "titulo": "Depto en Venta — Tierra Encantada", "calle": "Tierra Encantada, Terralta", "precio": 2300000, "m2c": 73, "rec": 2, "ban": 2, "estac": 2, "extras": "Pool · Gym · Rooftop · 2 estac.", "remate": false, "lat": 20.6104, "lng": -103.3608, "fuente": "casasyterrenos.com", "img": null },
    { "id": 17, "modalidad": "Venta", "tipoProp": "Depto", "titulo": "Depto en Venta — Tierra de Gloria", "calle": "Tierra de Gloria, Terralta", "precio": 1650000, "m2c": 65, "rec": 2, "ban": 2, "estac": 1, "extras": "Nuevo · Desarrollo vertical", "remate": false, "lat": 20.6122, "lng": -103.3607, "fuente": "casasyterrenos.com", "img": null },
    { "id": 18, "modalidad": "Renta", "tipoProp": "Depto", "titulo": "Depto en Renta — Las Nubes Residencial", "calle": "Las Nubes Residencial, Terralta", "precio": 13000, "m2c": 71, "rec": 3, "ban": 2, "estac": 1, "extras": "Torre vertical · Amenidades · Elevador", "remate": false, "lat": 20.6101, "lng": -103.3611, "fuente": "Pincali", "img": null },
    { "id": 19, "modalidad": "Renta", "tipoProp": "Depto", "titulo": "Depto en Renta — Tierra del Honor", "calle": "Tierra del Honor 845, Terralta", "precio": 10500, "m2c": 51, "rec": 2, "ban": 1, "estac": 1, "extras": "Condominio vertical · 1 estac.", "remate": false, "lat": 20.6116, "lng": -103.3630, "fuente": "Inmuebles24", "img": "https://img10.naventcdn.com/avisos/18/01/49/97/42/83/720x532/1608719453.jpg" },
    { "id": 20, "modalidad": "Renta", "tipoProp": "Depto", "titulo": "Depto en Renta — Tierra del Honor", "calle": "Tierra del Honor, Terralta", "precio": 8000, "m2c": 65, "rec": 2, "ban": 2, "estac": 1, "extras": "Condominio vertical · Elevador", "remate": false, "lat": 20.6115, "lng": -103.3631, "fuente": "Inmuebles24", "img": "https://img10.naventcdn.com/avisos/18/01/45/66/69/53/720x532/1510241052.jpg" },
    { "id": 21, "modalidad": "Renta", "tipoProp": "Depto", "titulo": "Depto en Renta — Tierra de Honor Oriente", "calle": "Tierra de Honor Oriente, Terralta", "precio": 9250, "m2c": 54, "rec": 2, "ban": 1, "estac": 1, "extras": "Condominio vertical · 1 estac.", "remate": false, "lat": 20.6116, "lng": -103.3628, "fuente": "Inmuebles24", "img": "https://img10.naventcdn.com/avisos/18/01/49/40/46/08/720x532/1596735832.jpg" },
    { "id": 22, "modalidad": "Venta", "tipoProp": "Depto", "titulo": "Depto en Venta — Las Nubes Residencial", "calle": "Las Nubes Residencial, Terralta", "precio": 1950000, "m2c": 70, "rec": 3, "ban": 2, "estac": 2, "extras": "Planta baja · Jardín · 2 estac.", "remate": false, "lat": 20.6103, "lng": -103.3612, "fuente": "Inmuebles24", "img": "https://img10.naventcdn.com/avisos/18/01/47/09/02/12/720x532/1547878932.jpg" },
    { "id": 23, "modalidad": "Venta", "tipoProp": "Casa", "titulo": "Casa en Venta — Coto San Gabriel", "calle": "Tierra de Unicornios 238, Coto San Gabriel", "precio": 3000000, "m2c": 105, "rec": 3, "ban": 2, "estac": 2, "extras": "Coto privado · Jardín · 2 estac.", "remate": false, "lat": 20.6083, "lng": -103.3566, "fuente": "Inmuebles24", "img": "https://img10.naventcdn.com/avisos/18/01/49/93/87/10/720x532/1607985144.jpg" },
    { "id": 24, "modalidad": "Renta", "tipoProp": "Depto", "titulo": "Depto Amueblado en Renta — Tierra Encantada", "calle": "Tierra Encantada 209, Terralta", "precio": 15000, "m2c": 71, "rec": 3, "ban": 2, "estac": 1, "extras": "Amueblado · Amenidades · Elevador", "remate": false, "lat": 20.6104, "lng": -103.3610, "fuente": "Inmuebles24", "img": "https://img10.naventcdn.com/avisos/18/01/49/28/38/85/720x532/1594262154.jpg" },
    { "id": 25, "modalidad": "Renta", "tipoProp": "Depto", "titulo": "Depto Amueblado Premium en Renta — Tierra Encantada", "calle": "Tierra Encantada 209, Terralta", "precio": 16500, "m2c": 71, "rec": 3, "ban": 2, "estac": 2, "extras": "Amueblado · Rooftop · 2 estac.", "remate": false, "lat": 20.6103, "lng": -103.3611, "fuente": "Inmuebles24", "img": "https://img10.naventcdn.com/avisos/18/01/49/86/31/90/720x532/1606388451.jpg" },
    { "id": 26, "modalidad": "Venta", "tipoProp": "Casa", "titulo": "Casa Remate — Tierra Contenta 198", "calle": "Tierra Contenta 198, Terralta", "precio": 902000, "m2c": 96, "rec": 2, "ban": 2, "estac": 2, "extras": "Remate bancario · 2 estacionamientos", "remate": true, "lat": 20.6107, "lng": -103.3575, "fuente": "Inmuebles24", "img": "https://img10.naventcdn.com/avisos/18/01/49/67/56/22/720x532/1602491579.jpg" },
    { "id": 27, "modalidad": "Venta", "tipoProp": "Casa", "titulo": "Casa Remate — Tierra de Ilusiones", "calle": "Tierra de Ilusiones, Terralta", "precio": 650000, "m2c": 98, "rec": 3, "ban": 2, "estac": 2, "extras": "Remate bancario · 2 estacionamientos", "remate": true, "lat": 20.6080, "lng": -103.3601, "fuente": "Inmuebles24", "img": "https://img10.naventcdn.com/avisos/18/01/49/47/59/70/720x532/1598190427.jpg" },
    { "id": 28, "modalidad": "Venta", "tipoProp": "Depto", "titulo": "Depto PB en Venta — Av. Terralta Central", "calle": "Av. Terralta Central, Terralta", "precio": 1990000, "m2c": 134, "rec": 2, "ban": 2, "estac": null, "extras": "Planta baja · Terraza amplia · Jardín privado", "remate": false, "lat": 20.6090, "lng": -103.3550, "fuente": "Inmuebles24", "img": "https://img10.naventcdn.com/avisos/18/01/49/36/98/53/720x532/1596052242.jpg" },
    { "id": 29, "modalidad": "Renta", "tipoProp": "Depto", "titulo": "Depto en Renta — Tierra Encantada", "calle": "Av. Tierra Encantada 209, Terralta", "precio": 10000, "m2c": 87, "rec": 2, "ban": 2, "estac": 1, "extras": "Desarrollo vertical · Amenidades · 1 estac.", "remate": false, "lat": 20.6102, "lng": -103.3609, "fuente": "Inmuebles24", "img": "https://img10.naventcdn.com/avisos/18/01/49/40/51/33/720x532/1596744997.jpg" },
    { "id": 30, "modalidad": "Venta", "tipoProp": "Casa", "titulo": "Casa Remate — Tierra Hermosa", "calle": "Tierra Hermosa, Terralta", "precio": 450000, "m2c": 103, "rec": 3, "ban": 2, "estac": 2, "extras": "Remate bancario · 2 estacionamientos", "remate": true, "lat": 20.6102, "lng": -103.3580, "fuente": "Inmuebles24", "img": "https://img10.naventcdn.com/avisos/18/01/49/47/59/57/720x532/1598189572.jpg" },
    { "id": 31, "modalidad": "Venta", "tipoProp": "Depto", "titulo": "Depto en Venta — Tierra Encantada 209", "calle": "Av. Tierra Encantada 209, Terralta", "precio": 1950000, "m2c": 71, "rec": 3, "ban": 2, "estac": 2, "extras": "Nuevo · Desarrollo Las Nubes · 2 estac.", "remate": false, "lat": 20.6104, "lng": -103.3607, "fuente": "Inmuebles24", "img": "https://img10.naventcdn.com/avisos/18/01/49/49/47/52/720x532/1598619174.jpg" },
    { "id": 32, "modalidad": "Venta", "tipoProp": "Casa", "titulo": "Casa en Venta — Tierra Contenta", "calle": "Tierra Contenta, Terralta", "precio": 1050000, "m2c": 96, "rec": 3, "ban": 2, "estac": 2, "extras": "Fracc. privado · Jardín · 2 estac.", "remate": false, "lat": 20.6105, "lng": -103.3577, "fuente": "Inmuebles24", "img": "https://img10.naventcdn.com/avisos/18/01/49/22/13/34/720x532/1592897995.jpg" },
    { "id": 33, "modalidad": "Venta", "tipoProp": "Casa", "titulo": "Casa en Venta — Av. Terralta Central", "calle": "Av. Terralta Central, Terralta", "precio": 610000, "m2c": 96, "rec": 3, "ban": 1, "estac": 2, "extras": "Fracc. cerrado · 2 estacionamientos", "remate": false, "lat": 20.6090, "lng": -103.3551, "fuente": "Inmuebles24", "img": "https://img10.naventcdn.com/avisos/18/01/48/86/99/72/720x532/1586030585.jpg" },
    { "id": 34, "modalidad": "Venta", "tipoProp": "Depto", "titulo": "Depto en Venta — Las Nubes Residencial", "calle": "Las Nubes Residencial, Terralta", "precio": 2128000, "m2c": 71, "rec": 3, "ban": 2, "estac": 1, "extras": "Desarrollo vertical · Amenidades · Elevador", "remate": false, "lat": 20.6101, "lng": -103.3610, "fuente": "Inmuebles24", "img": "https://img10.naventcdn.com/avisos/18/01/47/73/31/25/720x532/1563055772.jpg" },
    { "id": 35, "modalidad": "Venta", "tipoProp": "Depto", "titulo": "Depto Plus en Venta — Las Nubes Residencial", "calle": "Las Nubes Residencial, Terralta", "precio": 2725000, "m2c": 104, "rec": 3, "ban": 2, "estac": 1, "extras": "Gran formato · Amenidades · Elevador", "remate": false, "lat": 20.6102, "lng": -103.3611, "fuente": "Inmuebles24", "img": "https://img10.naventcdn.com/avisos/18/01/49/40/64/54/720x532/1596770561.jpg" },
    { "id": 36, "modalidad": "Renta", "tipoProp": "Depto", "titulo": "Depto en Renta — Tierra Encantada 3060", "calle": "Av. Tierra Encantada 3060 Int. 511, Terralta", "precio": 12250, "m2c": 125, "rec": 2, "ban": 2, "estac": 1, "extras": "125 m² · Piso alto · Vista panorámica", "remate": false, "lat": 20.6103, "lng": -103.3608, "fuente": "Inmuebles24", "img": "https://img10.naventcdn.com/avisos/18/01/49/73/93/42/720x532/1603819930.jpg" }
  ],
  "desarrollos": [
    { "id": "d1", "nombre": "Las Nubes Residencial", "desarrollador": "Celsius", "direccion": "Tierra Encantada #209, Terralta", "desde": 1500000, "modelos": [{"nombre":"Cielo","m2c":60,"rec":2,"ban":2,"precio":1500000},{"nombre":"Sol","m2c":71,"rec":3,"ban":2,"precio":1750000}], "tipo": "Vertical · 14 torres · 1,334 viviendas", "credito": "INFONAVIT · Crédito hipotecario", "lat": 20.6103, "lng": -103.3609, "url": "https://lasnubesresidencial.com", "img": "https://lasnubesresidencial.com/wp-content/uploads/2024/05/Portada.png" },
    { "id": "d2", "nombre": "Altosur", "desarrollador": "Domus Desarrolladora", "direccion": "Av. Jesús Reyes Heroles #1325, El Rocío", "desde": 1728684, "modelos": [{"nombre":"Himalaya","precio":1728684},{"nombre":"Balcanes","precio":1783426},{"nombre":"Alpes","precio":2025500},{"nombre":"Pirineos","precio":2148414}], "tipo": "Horizontal · Aceptan Infonavit / FOVISSSTE", "credito": "INFONAVIT · FOVISSSTE · Crédito hipotecario", "lat": 20.6145, "lng": -103.3624, "url": "https://altosur.com.mx", "img": "http://altosur.com.mx/wp-content/uploads/2025/05/fraccionamiento-altosur-departamentos-en-venta.png.webp" },
    { "id": "d3", "nombre": "Valentika", "desarrollador": "Preventa", "direccion": "Fraccionamiento Terralta, Tlaquepaque", "desde": 1500000, "modelos": [], "tipo": "Preventa · Zona Terralta", "credito": "INFONAVIT · Crédito hipotecario", "lat": 20.6095, "lng": -103.3582, "url": "https://inmuebles.mercadolibre.com.mx/casas/venta/jalisco/tlaquepaque/terralta/", "img": null }
  ]
}
